{
"type": "FeatureCollection",
"features": [
{ "type": "Feature", "properties": { "State": "AL", "Trans Pop": "99,421", "Gay Pop": "107,028", "Bi Pop": "118,661", "Latitude": 32.6010112, "Longitude": -86.6807365, "City": "Alabama" }, "geometry": { "type": "Point", "coordinates": [ -86.6807365, 32.6010112 ] } },
{ "type": "Feature", "properties": { "State": "AK", "Trans Pop": "5,731", "Gay Pop": "16,399", "Bi Pop": "27,175", "Latitude": 61.3025006, "Longitude": -158.7750198, "City": "Alaska" }, "geometry": { "type": "Point", "coordinates": [ -158.7750198, 61.3025006 ] } },
{ "type": "Feature", "properties": { "State": "AZ", "Trans Pop": "44,005", "Gay Pop": "317,917", "Bi Pop": "288,714", "Latitude": 34.1682185, "Longitude": -111.930907, "City": "Arizona" }, "geometry": { "type": "Point", "coordinates": [ -111.930907, 34.1682185 ] } },
{ "type": "Feature", "properties": { "State": "AR", "Trans Pop": "22,089", "Gay Pop": "49,159", "Bi Pop": "66,813", "Latitude": 34.7519275, "Longitude": -92.1313784, "City": "Arkansas" }, "geometry": { "type": "Point", "coordinates": [ -92.1313784, 34.7519275 ] } },
{ "type": "Feature", "properties": { "State": "CA", "Trans Pop": "129,080", "Gay Pop": "1,313,001", "Bi Pop": "1,313,890", "Latitude": 37.2718745, "Longitude": -119.2704153, "City": "California" }, "geometry": { "type": "Point", "coordinates": [ -119.2704153, 37.2718745 ] } },
{ "type": "Feature", "properties": { "State": "CO", "Trans Pop": "19,512", "Gay Pop": "215,899", "Bi Pop": "261,377", "Latitude": 38.9979339, "Longitude": -105.550567, "City": "Colorado" }, "geometry": { "type": "Point", "coordinates": [ -105.550567, 38.9979339 ] } },
{ "type": "Feature", "properties": { "State": "CT", "Trans Pop": "63,653", "Gay Pop": "121,866", "Bi Pop": "146,612", "Latitude": 41.5187835, "Longitude": -72.757507, "City": "Connecticut" }, "geometry": { "type": "Point", "coordinates": [ -72.757507, 41.5187835 ] } },
{ "type": "Feature", "properties": { "State": "DE", "Trans Pop": "7,657", "Gay Pop": "21,773", "Bi Pop": "30,873", "Latitude": 39.145251, "Longitude": -75.4189206, "City": "Delaware" }, "geometry": { "type": "Point", "coordinates": [ -75.4189206, 39.145251 ] } },
{ "type": "Feature", "properties": { "State": "DC", "Trans Pop": "178", "Gay Pop": "59,742", "Bi Pop": "22,079", "Latitude": 38.8993487, "Longitude": -77.0145666, "City": "District of Columbia" }, "geometry": { "type": "Point", "coordinates": [ -77.0145666, 38.8993487 ] } },
{ "type": "Feature", "properties": { "State": "FL", "Trans Pop": "164,974", "Gay Pop": "572,189", "Bi Pop": "595,017", "Latitude": 27.9757279, "Longitude": -81.8330166, "City": "Florida" }, "geometry": { "type": "Point", "coordinates": [ -81.8330166, 27.9757279 ] } },
{ "type": "Feature", "properties": { "State": "GA", "Trans Pop": "165,599", "Gay Pop": "217,789", "Bi Pop": "435,431", "Latitude": 32.6781248, "Longitude": -83.2229757, "City": "Georgia" }, "geometry": { "type": "Point", "coordinates": [ -83.2229757, 32.6781248 ] } },
{ "type": "Feature", "properties": { "State": "HI", "Trans Pop": "-", "Gay Pop": "14,208", "Bi Pop": "35,589", "Latitude": 20.46, "Longitude": -157.505, "City": "Hawaii" }, "geometry": { "type": "Point", "coordinates": [ -157.505, 20.46 ] } },
{ "type": "Feature", "properties": { "State": "ID", "Trans Pop": "29,942", "Gay Pop": "12,909", "Bi Pop": "62,226", "Latitude": 45.4945756, "Longitude": -114.1424303, "City": "Idaho" }, "geometry": { "type": "Point", "coordinates": [ -114.1424303, 45.4945756 ] } },
{ "type": "Feature", "properties": { "State": "IL", "Trans Pop": "121,429", "Gay Pop": "317,312", "Bi Pop": "434,003", "Latitude": 39.739318, "Longitude": -89.504139, "City": "Illinois" }, "geometry": { "type": "Point", "coordinates": [ -89.504139, 39.739318 ] } },
{ "type": "Feature", "properties": { "State": "IN", "Trans Pop": "67,334", "Gay Pop": "100,418", "Bi Pop": "131,988", "Latitude": 39.7662195, "Longitude": -86.441277, "City": "Indiana" }, "geometry": { "type": "Point", "coordinates": [ -86.441277, 39.7662195 ] } },
{ "type": "Feature", "properties": { "State": "IA", "Trans Pop": "107,481", "Gay Pop": "125,881", "Bi Pop": "117,078", "Latitude": 41.9383166, "Longitude": -93.389798, "City": "Iowa" }, "geometry": { "type": "Point", "coordinates": [ -93.389798, 41.9383166 ] } },
{ "type": "Feature", "properties": { "State": "KS", "Trans Pop": "38,039", "Gay Pop": "63,444", "Bi Pop": "92,221", "Latitude": 38.4987789, "Longitude": -98.3200779, "City": "Kansas" }, "geometry": { "type": "Point", "coordinates": [ -98.3200779, 38.4987789 ] } },
{ "type": "Feature", "properties": { "State": "KY", "Trans Pop": "25,706", "Gay Pop": "87,032", "Bi Pop": "135,470", "Latitude": 37.8222935, "Longitude": -85.7682399, "City": "Kentucky" }, "geometry": { "type": "Point", "coordinates": [ -85.7682399, 37.8222935 ] } },
{ "type": "Feature", "properties": { "State": "LA", "Trans Pop": "67,354", "Gay Pop": "115,762", "Bi Pop": "96,983", "Latitude": 30.9733766, "Longitude": -91.4299097, "City": "Louisiana" }, "geometry": { "type": "Point", "coordinates": [ -91.4299097, 30.9733766 ] } },
{ "type": "Feature", "properties": { "State": "ME", "Trans Pop": "11,335", "Gay Pop": "40,340", "Bi Pop": "59,852", "Latitude": 45.2185133, "Longitude": -69.0148656, "City": "Maine" }, "geometry": { "type": "Point", "coordinates": [ -69.0148656, 45.2185133 ] } },
{ "type": "Feature", "properties": { "State": "MD", "Trans Pop": "6,230", "Gay Pop": "141,727", "Bi Pop": "200,454", "Latitude": 38.8063524, "Longitude": -77.2684162, "City": "Maryland" }, "geometry": { "type": "Point", "coordinates": [ -77.2684162, 38.8063524 ] } },
{ "type": "Feature", "properties": { "State": "MA", "Trans Pop": "41,924", "Gay Pop": "150,743", "Bi Pop": "300,451", "Latitude": 42.0629398, "Longitude": -71.718067, "City": "Massachusetts" }, "geometry": { "type": "Point", "coordinates": [ -71.718067, 42.0629398 ] } },
{ "type": "Feature", "properties": { "State": "MI", "Trans Pop": "119,152", "Gay Pop": "237,063", "Bi Pop": "269,688", "Latitude": 44.9435598, "Longitude": -86.4158049, "City": "Michigan" }, "geometry": { "type": "Point", "coordinates": [ -86.4158049, 44.9435598 ] } },
{ "type": "Feature", "properties": { "State": "MN", "Trans Pop": "69,737", "Gay Pop": "106,380", "Bi Pop": "202,178", "Latitude": 46.4418595, "Longitude": -93.3655146, "City": "Minnesota" }, "geometry": { "type": "Point", "coordinates": [ -93.3655146, 46.4418595 ] } },
{ "type": "Feature", "properties": { "State": "MS", "Trans Pop": "3,401", "Gay Pop": "46,197", "Bi Pop": "42,600", "Latitude": 32.5851062, "Longitude": -89.8772196, "City": "Mississippi" }, "geometry": { "type": "Point", "coordinates": [ -89.8772196, 32.5851062 ] } },
{ "type": "Feature", "properties": { "State": "MO", "Trans Pop": "32,283", "Gay Pop": "107,939", "Bi Pop": "193,042", "Latitude": 38.3046615, "Longitude": -92.437099, "City": "Missouri" }, "geometry": { "type": "Point", "coordinates": [ -92.437099, 38.3046615 ] } },
{ "type": "Feature", "properties": { "State": "MT", "Trans Pop": "1,138", "Gay Pop": "18,129", "Bi Pop": "49,675", "Latitude": 46.6797995, "Longitude": -110.044783, "City": "Montana" }, "geometry": { "type": "Point", "coordinates": [ -110.044783, 46.6797995 ] } },
{ "type": "Feature", "properties": { "State": "NE", "Trans Pop": "24,065", "Gay Pop": "29,317", "Bi Pop": "49,683", "Latitude": 41.5008195, "Longitude": -99.680902, "City": "Nebraska" }, "geometry": { "type": "Point", "coordinates": [ -99.680902, 41.5008195 ] } },
{ "type": "Feature", "properties": { "State": "NV", "Trans Pop": "19,780", "Gay Pop": "118,470", "Bi Pop": "107,176", "Latitude": 38.502032, "Longitude": -117.0230604, "City": "Nevada" }, "geometry": { "type": "Point", "coordinates": [ -117.0230604, 38.502032 ] } },
{ "type": "Feature", "properties": { "State": "NH", "Trans Pop": "11,414", "Gay Pop": "28,047", "Bi Pop": "63,172", "Latitude": 44.0012306, "Longitude": -71.5799231, "City": "New Hampshire" }, "geometry": { "type": "Point", "coordinates": [ -71.5799231, 44.0012306 ] } },
{ "type": "Feature", "properties": { "State": "NJ", "Trans Pop": "16,715", "Gay Pop": "202,578", "Bi Pop": "196,652", "Latitude": 40.1430058, "Longitude": -74.7311156, "City": "New Jersey" }, "geometry": { "type": "Point", "coordinates": [ -74.7311156, 40.1430058 ] } },
{ "type": "Feature", "properties": { "State": "NM", "Trans Pop": "7,064", "Gay Pop": "48,057", "Bi Pop": "106,566", "Latitude": 34.1662325, "Longitude": -106.0260685, "City": "New Mexico" }, "geometry": { "type": "Point", "coordinates": [ -106.0260685, 34.1662325 ] } },
{ "type": "Feature", "properties": { "State": "NY", "Trans Pop": "55,722", "Gay Pop": "406,153", "Bi Pop": "775,137", "Latitude": 40.7056258, "Longitude": -73.97968, "City": "New York" }, "geometry": { "type": "Point", "coordinates": [ -73.97968, 40.7056258 ] } },
{ "type": "Feature", "properties": { "State": "NC", "Trans Pop": "103,803", "Gay Pop": "349,902", "Bi Pop": "337,724", "Latitude": 35.2145629, "Longitude": -79.8912675, "City": "North Carolina" }, "geometry": { "type": "Point", "coordinates": [ -79.8912675, 35.2145629 ] } },
{ "type": "Feature", "properties": { "State": "ND", "Trans Pop": "1,893", "Gay Pop": "3,625", "Bi Pop": "14,863", "Latitude": 47.4678819, "Longitude": -100.3022655, "City": "North Dakota" }, "geometry": { "type": "Point", "coordinates": [ -100.3022655, 47.4678819 ] } },
{ "type": "Feature", "properties": { "State": "OH", "Trans Pop": "120,743", "Gay Pop": "266,922", "Bi Pop": "414,580", "Latitude": 40.1903624, "Longitude": -82.6692525, "City": "Ohio" }, "geometry": { "type": "Point", "coordinates": [ -82.6692525, 40.1903624 ] } },
{ "type": "Feature", "properties": { "State": "OK", "Trans Pop": "12,648", "Gay Pop": "65,144", "Bi Pop": "165,661", "Latitude": 35.3097654, "Longitude": -98.7165585, "City": "Oklahoma" }, "geometry": { "type": "Point", "coordinates": [ -98.7165585, 35.3097654 ] } },
{ "type": "Feature", "properties": { "State": "OR", "Trans Pop": "49,273", "Gay Pop": "119,742", "Bi Pop": "189,416", "Latitude": 44.1419049, "Longitude": -120.5380993, "City": "Oregon" }, "geometry": { "type": "Point", "coordinates": [ -120.5380993, 44.1419049 ] } },
{ "type": "Feature", "properties": { "State": "PA", "Trans Pop": "51,647", "Gay Pop": "284,771", "Bi Pop": "391,188", "Latitude": 40.9945928, "Longitude": -77.6046984, "City": "Pennsylvania" }, "geometry": { "type": "Point", "coordinates": [ -77.6046984, 40.9945928 ] } },
{ "type": "Feature", "properties": { "State": "RI", "Trans Pop": "1,079", "Gay Pop": "27,652", "Bi Pop": "65,154", "Latitude": 41.5827282, "Longitude": -71.5064508, "City": "Rhode Island" }, "geometry": { "type": "Point", "coordinates": [ -71.5064508, 41.5827282 ] } },
{ "type": "Feature", "properties": { "State": "SC", "Trans Pop": "25,386", "Gay Pop": "164,436", "Bi Pop": "117,117", "Latitude": 33.62505, "Longitude": -80.9470381, "City": "South Carolina" }, "geometry": { "type": "Point", "coordinates": [ -80.9470381, 33.62505 ] } },
{ "type": "Feature", "properties": { "State": "SD", "Trans Pop": "-", "Gay Pop": "9,492", "Bi Pop": "24,377", "Latitude": 44.2126995, "Longitude": -100.2471641, "City": "South Dakota" }, "geometry": { "type": "Point", "coordinates": [ -100.2471641, 44.2126995 ] } },
{ "type": "Feature", "properties": { "State": "TN", "Trans Pop": "41,485", "Gay Pop": "142,870", "Bi Pop": "219,475", "Latitude": 35.830521, "Longitude": -85.9785989, "City": "Tennessee" }, "geometry": { "type": "Point", "coordinates": [ -85.9785989, 35.830521 ] } },
{ "type": "Feature", "properties": { "State": "TX", "Trans Pop": "153,445", "Gay Pop": "692,799", "Bi Pop": "926,463", "Latitude": 31.1693363, "Longitude": -100.0768425, "City": "Texas" }, "geometry": { "type": "Point", "coordinates": [ -100.0768425, 31.1693363 ] } },
{ "type": "Feature", "properties": { "State": "UT", "Trans Pop": "14,018", "Gay Pop": "65,162", "Bi Pop": "161,366", "Latitude": 39.4997605, "Longitude": -111.547028, "City": "Utah" }, "geometry": { "type": "Point", "coordinates": [ -111.547028, 39.4997605 ] } },
{ "type": "Feature", "properties": { "State": "VT", "Trans Pop": "-", "Gay Pop": "11,881", "Bi Pop": "13,561", "Latitude": 43.8717545, "Longitude": -72.4477828, "City": "Vermont" }, "geometry": { "type": "Point", "coordinates": [ -72.4477828, 43.8717545 ] } },
{ "type": "Feature", "properties": { "State": "VA", "Trans Pop": "25,073", "Gay Pop": "156,701", "Bi Pop": "332,400", "Latitude": 38.0033855, "Longitude": -79.4587861, "City": "Virginia" }, "geometry": { "type": "Point", "coordinates": [ -79.4587861, 38.0033855 ] } },
{ "type": "Feature", "properties": { "State": "WA", "Trans Pop": "63,763", "Gay Pop": "178,985", "Bi Pop": "457,554", "Latitude": 47.7511, "Longitude": -120.7401, "City": "Washington" }, "geometry": { "type": "Point", "coordinates": [ -120.7401, 47.7511 ] } },
{ "type": "Feature", "properties": { "State": "WV", "Trans Pop": "22,533", "Gay Pop": "41,289", "Bi Pop": "129,393", "Latitude": 38.9201705, "Longitude": -80.1816905, "City": "West Virginia" }, "geometry": { "type": "Point", "coordinates": [ -80.1816905, 38.9201705 ] } },
{ "type": "Feature", "properties": { "State": "WI", "Trans Pop": "53,594", "Gay Pop": "148,060", "Bi Pop": "215,308", "Latitude": 44.7862968, "Longitude": -89.8267049, "City": "Wisconsin" }, "geometry": { "type": "Point", "coordinates": [ -89.8267049, 44.7862968 ] } },
{ "type": "Feature", "properties": { "State": "WY", "Trans Pop": "4,912", "Gay Pop": "5,479", "Bi Pop": "27,669", "Latitude": 43.000325, "Longitude": -107.5545669, "City": "Wyoming" }, "geometry": { "type": "Point", "coordinates": [ -107.5545669, 43.000325 ] } }
]
}
